{
  "title": "中国动画公司信息",
  "totalStudios": 187,
  "lastUpdated": "2026-01-31",
  "source": "https://mp.weixin.qq.com/s/9xUNeAFMufco9vG_Ml-4Bw",
  "provinces": [
    {
      "province": "广东省",
      "studios": [
        {
          "name": "翅鱼动画工作室",
          "city": "广州",
          "location": "广东省广州",
          "year": "2022"
        },
        {
          "name": "大火鸟文化",
          "city": "广州",
          "location": "广东省广州",
          "year": "2017"
        },
        {
          "name": "飞鸿动画工作室",
          "city": "广州",
          "location": "广东省广州",
          "year": "2021"
        },
        {
          "name": "创梦者动漫",
          "city": "广州",
          "location": "广东省广州",
          "year": "2017"
        },
        {
          "name": "绘梦动画广深部门",
          "city": "广州",
          "location": "广东省广州",
          "year": "2015"
        },
        {
          "name": "齿轮映画",
          "city": "广州",
          "location": "广东省广州",
          "year": "2020"
        },
        {
          "name": "九尾动画",
          "city": "广州",
          "location": "广东省广州",
          "year": "2017"
        },
        {
          "name": "九五年动画",
          "city": "广州",
          "location": "广东省广州",
          "year": "2017"
        },
        {
          "name": "LAN映画 广州部",
          "city": "广州",
          "location": "广东省广州",
          "year": "2021"
        },
        {
          "name": "狼烟动画",
          "city": "广州",
          "location": "广东省广州",
          "year": "2006"
        },
        {
          "name": "绿怪研",
          "city": "广州",
          "location": "广东省广州",
          "year": "2014"
        },
        {
          "name": "干骐动漫",
          "city": "广州",
          "location": "广东省广州",
          "year": "2006"
        },
        {
          "name": "四次方",
          "city": "广州",
          "location": "广东省广州",
          "year": "2015"
        },
        {
          "name": "肆鳞映画",
          "city": "广州",
          "location": "广东省广州",
          "year": "2020"
        },
        {
          "name": "小疯映画",
          "city": "广州",
          "location": "广东省广州",
          "year": "2015"
        },
        {
          "name": "纸研社",
          "city": "广州",
          "location": "广东省广州",
          "year": "2023"
        },
        {
          "name": "星屿ISLAND STUDIO",
          "city": "广州",
          "location": "广东省广州",
          "year": "2022"
        },
        {
          "name": "广州灵海动画",
          "city": "广州",
          "location": "广东省广州",
          "year": "2023"
        },
        {
          "name": "广州踢桃",
          "city": "广州",
          "location": "广东省广州",
          "year": "2022"
        },
        {
          "name": "龙宫动画",
          "city": "广州",
          "location": "广东省广州",
          "year": "2023"
        },
        {
          "name": "狐光动画",
          "city": "深圳",
          "location": "广东省深圳",
          "year": "2015"
        },
        {
          "name": "布袋动画",
          "city": "深圳",
          "location": "广东省深圳",
          "year": "2018"
        },
        {
          "name": "空山新雨",
          "city": "深圳",
          "location": "广东省深圳",
          "year": "2022"
        },
        {
          "name": "LAN映画 深圳部",
          "city": "深圳",
          "location": "广东省深圳",
          "year": "2015"
        },
        {
          "name": "谜谭动画",
          "city": "深圳",
          "location": "广东省深圳",
          "year": "2015"
        },
        {
          "name": "群想动漫",
          "city": "深圳",
          "location": "广东省深圳",
          "year": "2017"
        },
        {
          "name": "魅力动画",
          "city": "深圳",
          "location": "广东省深圳",
          "year": "2012"
        },
        {
          "name": "星有野动画工作室",
          "city": "深圳",
          "location": "广东省深圳",
          "year": ""
        },
        {
          "name": "友人映画",
          "city": "深圳",
          "location": "广东省深圳",
          "year": "2017"
        }
      ]
    },
    {
      "province": "江苏省",
      "studios": [
        {
          "name": "光之羽动漫(动画背景)",
          "city": "常州",
          "location": "江苏省常州",
          "year": ""
        },
        {
          "name": "青叶动画",
          "city": "南京",
          "location": "江苏省南京",
          "year": "2023"
        },
        {
          "name": "红蓝朋友",
          "city": "南京",
          "location": "江苏省南京",
          "year": "2024"
        },
        {
          "name": "幻想师动画",
          "city": "苏州",
          "location": "江苏省苏州",
          "year": "2017"
        },
        {
          "name": "Astra宇画廊",
          "city": "苏州",
          "location": "江苏省苏州",
          "year": "2023"
        },
        {
          "name": "蒲公英文化",
          "city": "苏州",
          "location": "江苏省苏州",
          "year": ""
        },
        {
          "name": "极速蜗牛",
          "city": "无锡",
          "location": "江苏省无锡",
          "year": "2017"
        },
        {
          "name": "静漫动漫",
          "city": "无锡",
          "location": "江苏省无锡",
          "year": "2019"
        },
        {
          "name": "猫庐映画",
          "city": "无锡",
          "location": "江苏省无锡",
          "year": ""
        },
        {
          "name": "猫祝动画",
          "city": "无锡",
          "location": "江苏省无锡",
          "year": "2019"
        },
        {
          "name": "奕泓动画",
          "city": "无锡",
          "location": "江苏省无锡",
          "year": "2017"
        },
        {
          "name": "樱花卡通",
          "city": "无锡",
          "location": "江苏省无锡",
          "year": "2007"
        },
        {
          "name": "牧笛动画",
          "city": "无锡",
          "location": "江苏省无锡",
          "year": "2014"
        },
        {
          "name": "所泽文化",
          "city": "无锡",
          "location": "江苏省无锡",
          "year": "2020"
        },
        {
          "name": "明良动画",
          "city": "无锡",
          "location": "江苏省无锡",
          "year": "2018"
        },
        {
          "name": "白马动画",
          "city": "无锡",
          "location": "江苏省无锡",
          "year": ""
        },
        {
          "name": "至简动画",
          "city": "无锡",
          "location": "江苏省无锡",
          "year": ""
        },
        {
          "name": "无锡裕辰动漫",
          "city": "无锡",
          "location": "江苏省无锡",
          "year": ""
        },
        {
          "name": "梓宏动画",
          "city": "无锡",
          "location": "江苏省无锡",
          "year": "2016"
        },
        {
          "name": "火鸟动画",
          "city": "无锡",
          "location": "江苏省无锡",
          "year": "1999"
        },
        {
          "name": "新阿尼动画",
          "city": "扬州",
          "location": "江苏省扬州",
          "year": "2020"
        },
        {
          "name": "扬州一鱼动画",
          "city": "扬州",
          "location": "江苏省扬州",
          "year": "2019"
        }
      ]
    },
    {
      "province": "浙江省",
      "studios": [
        {
          "name": "神在动漫",
          "city": "杭州",
          "location": "浙江省杭州",
          "year": "2020"
        },
        {
          "name": "ASK动画杭州部",
          "city": "杭州",
          "location": "浙江省杭州",
          "year": ""
        },
        {
          "name": "崇卓文化",
          "city": "杭州",
          "location": "浙江省杭州",
          "year": "2016"
        },
        {
          "name": "咕咚动漫",
          "city": "杭州",
          "location": "浙江省杭州",
          "year": "2012"
        },
        {
          "name": "画枚动画",
          "city": "杭州",
          "location": "浙江省杭州",
          "year": "2019"
        },
        {
          "name": "娃娃鱼动画",
          "city": "杭州",
          "location": "浙江省杭州",
          "year": "2007"
        },
        {
          "name": "虫左道右(不思凡)",
          "city": "杭州",
          "location": "浙江省杭州",
          "year": ""
        },
        {
          "name": "野团子动画(不思凡)",
          "city": "杭州",
          "location": "浙江省杭州",
          "year": ""
        },
        {
          "name": "视美杭州部",
          "city": "杭州",
          "location": "浙江省杭州",
          "year": "2017"
        },
        {
          "name": "莫名其妙动画",
          "city": "杭州",
          "location": "浙江省杭州",
          "year": "2019"
        },
        {
          "name": "麦壳动画",
          "city": "杭州",
          "location": "浙江省杭州",
          "year": "2023"
        },
        {
          "name": "麦元映画(鸦色动漫)",
          "city": "杭州",
          "location": "浙江省杭州",
          "year": "2018"
        },
        {
          "name": "干纸鹤",
          "city": "宁波",
          "location": "浙江省宁波",
          "year": "2022"
        },
        {
          "name": "麦冬映画",
          "city": "宁波",
          "location": "浙江省宁波",
          "year": "2018"
        },
        {
          "name": "六道无鱼",
          "city": "衢州",
          "location": "浙江省衢州",
          "year": "2016"
        },
        {
          "name": "梦卜动漫",
          "city": "温州",
          "location": "浙江省温州",
          "year": "2016"
        },
        {
          "name": "燃乐映画",
          "city": "绍兴",
          "location": "浙江省绍兴",
          "year": "2021"
        }
      ]
    },
    {
      "province": "北京",
      "studios": [
        {
          "name": "北京白纸文化传播有限公司",
          "city": "北京",
          "location": "北京北京",
          "year": "2018"
        },
        {
          "name": "璀璨星空",
          "city": "北京",
          "location": "北京北京",
          "year": "2009"
        },
        {
          "name": "方方土",
          "city": "北京",
          "location": "北京北京",
          "year": "2016"
        },
        {
          "name": "不知鸣动画",
          "city": "北京",
          "location": "北京北京",
          "year": "2024"
        },
        {
          "name": "分子互动",
          "city": "北京",
          "location": "北京北京",
          "year": "2012"
        },
        {
          "name": "神奇一天",
          "city": "北京",
          "location": "北京北京",
          "year": "2017"
        },
        {
          "name": "摔跤社",
          "city": "北京",
          "location": "北京北京",
          "year": "2018"
        },
        {
          "name": "星律动画 北京部",
          "city": "北京",
          "location": "北京北京",
          "year": "2016"
        },
        {
          "name": "ASK动画 北京部",
          "city": "北京",
          "location": "北京北京",
          "year": "2004"
        },
        {
          "name": "中传合道",
          "city": "北京",
          "location": "北京北京",
          "year": "2015"
        },
        {
          "name": "左手上篮文化",
          "city": "北京",
          "location": "北京北京",
          "year": "2019"
        },
        {
          "name": "什悦文化",
          "city": "北京",
          "location": "北京北京",
          "year": "2017"
        },
        {
          "name": "火药方糖",
          "city": "北京",
          "location": "北京北京",
          "year": "2020"
        },
        {
          "name": "木风米糖",
          "city": "北京",
          "location": "北京北京",
          "year": "2020"
        },
        {
          "name": "震荡单元",
          "city": "北京",
          "location": "北京北京",
          "year": "2008"
        },
        {
          "name": "北京雷川文化有限公司",
          "city": "北京",
          "location": "北京北京",
          "year": "2020"
        }
      ]
    },
    {
      "province": "安徽省",
      "studios": [
        {
          "name": "小可爱动画",
          "city": "合肥",
          "location": "安徽省合肥",
          "year": "2019"
        },
        {
          "name": "春归映画",
          "city": "合肥",
          "location": "安徽省合肥",
          "year": "2021"
        },
        {
          "name": "板绘动漫",
          "city": "合肥",
          "location": "安徽省合肥",
          "year": "2021"
        },
        {
          "name": "芯动文化",
          "city": "合肥",
          "location": "安徽省合肥",
          "year": "2020"
        },
        {
          "name": "乐淘文化",
          "city": "合肥",
          "location": "安徽省合肥",
          "year": "2019"
        },
        {
          "name": "岸影动画",
          "city": "合肥",
          "location": "安徽省合肥",
          "year": "2018"
        },
        {
          "name": "伊原色",
          "city": "合肥",
          "location": "安徽省合肥",
          "year": "2024"
        },
        {
          "name": "炎珏文化",
          "city": "合肥",
          "location": "安徽省合肥",
          "year": "2022"
        },
        {
          "name": "核聚变",
          "city": "合肥",
          "location": "安徽省合肥",
          "year": "2023"
        },
        {
          "name": "群想动漫(芜湖)",
          "city": "芜湖",
          "location": "安徽省芜湖",
          "year": "2024"
        }
      ]
    },
    {
      "province": "重庆",
      "studios": [
        {
          "name": "彩色铅笔",
          "city": "重庆",
          "location": "重庆重庆",
          "year": "2014"
        },
        {
          "name": "叉叉裤",
          "city": "重庆",
          "location": "重庆重庆",
          "year": ""
        },
        {
          "name": "绘梦动画 重庆部",
          "city": "重庆",
          "location": "重庆重庆",
          "year": ""
        },
        {
          "name": "铅元素 重庆部",
          "city": "重庆",
          "location": "重庆重庆",
          "year": "2015"
        },
        {
          "name": "视美 重庆部",
          "city": "重庆",
          "location": "重庆重庆",
          "year": "2007"
        },
        {
          "name": "不存在动画设计工作室",
          "city": "重庆",
          "location": "重庆重庆",
          "year": ""
        },
        {
          "name": "爆裂社",
          "city": "重庆",
          "location": "重庆重庆",
          "year": "2023"
        },
        {
          "name": "荷叶萌",
          "city": "重庆",
          "location": "重庆重庆",
          "year": ""
        },
        {
          "name": "指间动画重庆分部",
          "city": "重庆",
          "location": "重庆重庆",
          "year": ""
        }
      ]
    },
    {
      "province": "四川省",
      "studios": [
        {
          "name": "成都红盒子",
          "city": "成都",
          "location": "四川省成都",
          "year": ""
        },
        {
          "name": "717工作室/柒幺柒动画",
          "city": "成都",
          "location": "四川省成都",
          "year": "2012"
        },
        {
          "name": "艾尔平方",
          "city": "成都",
          "location": "四川省成都",
          "year": "2013"
        },
        {
          "name": "大肥鹅动漫",
          "city": "成都",
          "location": "四川省成都",
          "year": "2021"
        },
        {
          "name": "奇影动漫/萌宠神番动漫",
          "city": "成都",
          "location": "四川省成都",
          "year": ""
        },
        {
          "name": "壹灵社",
          "city": "成都",
          "location": "四川省成都",
          "year": "2023"
        },
        {
          "name": "铅元素成都部",
          "city": "成都",
          "location": "四川省成都",
          "year": ""
        },
        {
          "name": "麻溜儿动漫",
          "city": "达州",
          "location": "四川省达州",
          "year": "2024"
        }
      ]
    },
    {
      "province": "湖北省",
      "studios": [
        {
          "name": "两点十分",
          "city": "武汉",
          "location": "湖北省武汉",
          "year": "2011"
        },
        {
          "name": "呐鸣动画(武汉)",
          "city": "武汉",
          "location": "湖北省武汉",
          "year": "2024"
        },
        {
          "name": "阁阁有旨",
          "city": "武汉",
          "location": "湖北省武汉",
          "year": "2022"
        },
        {
          "name": "立羽文化武汉分部",
          "city": "武汉",
          "location": "湖北省武汉",
          "year": "2021"
        },
        {
          "name": "风笛动画",
          "city": "武汉",
          "location": "湖北省武汉",
          "year": "2022"
        },
        {
          "name": "茶杯龙",
          "city": "武汉",
          "location": "湖北省武汉",
          "year": "2021"
        },
        {
          "name": "镜心影",
          "city": "武汉",
          "location": "湖北省武汉",
          "year": "2024"
        }
      ]
    },
    {
      "province": "上海",
      "studios": [
        {
          "name": "喵社绘动画",
          "city": "上海",
          "location": "上海上海",
          "year": "2016"
        },
        {
          "name": "樊特姆动画",
          "city": "上海",
          "location": "上海上海",
          "year": "2019"
        },
        {
          "name": "落水花原(菊堂工作室)",
          "city": "上海",
          "location": "上海上海",
          "year": "2018"
        },
        {
          "name": "七灵石",
          "city": "上海",
          "location": "上海上海",
          "year": "2016"
        },
        {
          "name": "震雷动画",
          "city": "上海",
          "location": "上海上海",
          "year": "2014"
        }
      ]
    },
    {
      "province": "天津",
      "studios": [
        {
          "name": "寒木春华",
          "city": "天津",
          "location": "天津天津",
          "year": "2012"
        },
        {
          "name": "好传动画",
          "city": "天津",
          "location": "天津天津",
          "year": "2011"
        },
        {
          "name": "青竹文化传媒",
          "city": "天津",
          "location": "天津天津",
          "year": "2022"
        },
        {
          "name": "犀牛坨动画工坊",
          "city": "天津",
          "location": "天津天津",
          "year": "2020"
        }
      ]
    },
    {
      "province": "河南省",
      "studios": [
        {
          "name": "河南中朗文化",
          "city": "洛阳",
          "location": "河南省洛阳",
          "year": "2021"
        },
        {
          "name": "艾思动漫",
          "city": "南阳",
          "location": "河南省南阳",
          "year": "2017"
        },
        {
          "name": "艾思动漫",
          "city": "郑州",
          "location": "河南省郑州",
          "year": "2021"
        },
        {
          "name": "指间动画",
          "city": "郑州",
          "location": "河南省郑州",
          "year": "2023"
        }
      ]
    },
    {
      "province": "山东省",
      "studios": [
        {
          "name": "鹿角映画",
          "city": "济南",
          "location": "山东省济南",
          "year": ""
        },
        {
          "name": "华韩(东营)动漫",
          "city": "东营",
          "location": "山东省东营",
          "year": "2024"
        },
        {
          "name": "飞雪动画工坊",
          "city": "济宁",
          "location": "山东省济宁",
          "year": "2018"
        },
        {
          "name": "市北区四季社动漫设计",
          "city": "青岛",
          "location": "山东省青岛",
          "year": "2023"
        }
      ]
    },
    {
      "province": "辽宁省",
      "studios": [
        {
          "name": "大熊不动",
          "city": "大连",
          "location": "辽宁省大连",
          "year": ""
        },
        {
          "name": "糖人动漫",
          "city": "大连",
          "location": "辽宁省大连",
          "year": "2010"
        },
        {
          "name": "拓锐达动漫",
          "city": "大连",
          "location": "辽宁省大连",
          "year": ""
        },
        {
          "name": "燃羽动画(沈阳大火鸟)",
          "city": "沈阳",
          "location": "辽宁省沈阳",
          "year": "2017"
        }
      ]
    },
    {
      "province": "湖南省",
      "studios": [
        {
          "name": "立羽文化",
          "city": "长沙",
          "location": "湖南省长沙",
          "year": "2016"
        },
        {
          "name": "视美长沙分部",
          "city": "长沙",
          "location": "湖南省长沙",
          "year": "2021"
        },
        {
          "name": "漫无表情工作室",
          "city": "长沙",
          "location": "湖南省长沙",
          "year": "2017"
        }
      ]
    },
    {
      "province": "陕西省",
      "studios": [
        {
          "name": "西安靶心",
          "city": "西安",
          "location": "陕西省西安",
          "year": "2023"
        },
        {
          "name": "铅元素西安部",
          "city": "西安",
          "location": "陕西省西安",
          "year": ""
        },
        {
          "name": "视美西安部",
          "city": "西安",
          "location": "陕西省西安",
          "year": ""
        }
      ]
    },
    {
      "province": "福建省",
      "studios": [
        {
          "name": "光树映画",
          "city": "厦门",
          "location": "福建省厦门",
          "year": "2019"
        },
        {
          "name": "绘梦想动漫",
          "city": "厦门",
          "location": "福建省厦门",
          "year": "2012"
        }
      ]
    },
    {
      "province": "吉林省",
      "studios": [
        {
          "name": "知行合一动漫",
          "city": "长春",
          "location": "吉林省长春",
          "year": "2016"
        },
        {
          "name": "奥绘传媒",
          "city": "长春",
          "location": "吉林省长春",
          "year": "2024"
        }
      ]
    },
    {
      "province": "黑龙江省",
      "studios": [
        {
          "name": "一泽映画",
          "city": "哈尔滨",
          "location": "黑龙江省哈尔滨",
          "year": "2016"
        }
      ]
    },
    {
      "province": "贵州省",
      "studios": [
        {
          "name": "谦行映画",
          "city": "贵阳",
          "location": "贵州省贵阳",
          "year": "2016"
        }
      ]
    },
    {
      "province": "其他",
      "studios": [
        {
          "name": "北京白纸文化传播有限公司",
          "city": "北京",
          "location": "北京",
          "year": "2018"
        },
        {
          "name": "璀璨星空",
          "city": "北京",
          "location": "北京",
          "year": "2009"
        },
        {
          "name": "方方土",
          "city": "北京",
          "location": "北京",
          "year": "2016"
        },
        {
          "name": "不知鸣动画",
          "city": "北京",
          "location": "北京",
          "year": "2024"
        },
        {
          "name": "分子互动",
          "city": "北京",
          "location": "北京",
          "year": "2012"
        },
        {
          "name": "神奇一天",
          "city": "北京",
          "location": "北京",
          "year": "2017"
        },
        {
          "name": "摔跤社",
          "city": "北京",
          "location": "北京",
          "year": "2018"
        },
        {
          "name": "星律动画 北京部",
          "city": "北京",
          "location": "北京",
          "year": "2016"
        },
        {
          "name": "ASK动画 北京部",
          "city": "北京",
          "location": "北京",
          "year": "2004"
        },
        {
          "name": "中传合道",
          "city": "北京",
          "location": "北京",
          "year": "2015"
        },
        {
          "name": "左手上篮文化",
          "city": "北京",
          "location": "北京",
          "year": "2019"
        },
        {
          "name": "什悦文化",
          "city": "北京",
          "location": "北京",
          "year": "2017"
        },
        {
          "name": "火药方糖",
          "city": "北京",
          "location": "北京",
          "year": "2020"
        },
        {
          "name": "木风米糖",
          "city": "北京",
          "location": "北京",
          "year": "2020"
        },
        {
          "name": "震荡单元",
          "city": "北京",
          "location": "北京",
          "year": "2008"
        },
        {
          "name": "北京雷川文化有限公司",
          "city": "北京",
          "location": "北京",
          "year": "2020"
        },
        {
          "name": "喵社绘动画",
          "city": "上海",
          "location": "上海",
          "year": "2016"
        },
        {
          "name": "樊特姆动画",
          "city": "上海",
          "location": "上海",
          "year": "2019"
        },
        {
          "name": "落水花原(菊堂工作室)",
          "city": "上海",
          "location": "上海",
          "year": "2018"
        },
        {
          "name": "七灵石",
          "city": "上海",
          "location": "上海",
          "year": "2016"
        },
        {
          "name": "震雷动画",
          "city": "上海",
          "location": "上海",
          "year": "2014"
        },
        {
          "name": "寒木春华",
          "city": "天津",
          "location": "天津",
          "year": "2012"
        },
        {
          "name": "好传动画",
          "city": "天津",
          "location": "天津",
          "year": "2011"
        },
        {
          "name": "青竹文化传媒",
          "city": "天津",
          "location": "天津",
          "year": "2022"
        },
        {
          "name": "犀牛坨动画工坊",
          "city": "天津",
          "location": "天津",
          "year": "2020"
        },
        {
          "name": "彩色铅笔",
          "city": "重庆",
          "location": "重庆",
          "year": "2014"
        },
        {
          "name": "叉叉裤",
          "city": "重庆",
          "location": "重庆",
          "year": ""
        },
        {
          "name": "绘梦动画 重庆部",
          "city": "重庆",
          "location": "重庆",
          "year": ""
        },
        {
          "name": "铅元素 重庆部",
          "city": "重庆",
          "location": "重庆",
          "year": "2015"
        },
        {
          "name": "视美 重庆部",
          "city": "重庆",
          "location": "重庆",
          "year": "2007"
        },
        {
          "name": "不存在动画设计工作室",
          "city": "重庆",
          "location": "重庆",
          "year": ""
        },
        {
          "name": "爆裂社",
          "city": "重庆",
          "location": "重庆",
          "year": "2023"
        },
        {
          "name": "荷叶萌",
          "city": "重庆",
          "location": "重庆",
          "year": ""
        },
        {
          "name": "指间动画重庆分部",
          "city": "重庆",
          "location": "重庆",
          "year": ""
        }
      ]
    }
  ]
}